{
  "data": {
    "stations": [
      {
        "lat": 48.542119,
        "lon": 9.058715,
        "name": "Fichtenweg 2, Parkhaus",
        "address": "Fichtenweg 2, 72076 T\u00fcbingen",
        "station_id": "5",
        "rental_uris": {
          "web": "https://ewi3-teilauto-neckar-alb.cantamen.de/#48.5421-9.0567-17-0/place/496"
        }
      },
      {
        "lat": 48.540561,
        "lon": 9.04686,
        "name": "Albrecht-D\u00fcrer-Str. 3, Wanne",
        "address": "Albrecht-D\u00fcrer-Stra\u00dfe 3, 72076 T\u00fcbingen",
        "station_id": "6",
        "rental_uris": {
          "web": "https://ewi3-teilauto-neckar-alb.cantamen.de/#48.5405-9.0447-17-0/place/497"
        }
      },
      {
        "lat": 48.536055,
        "lon": 9.062209,
        "name": "Niethammerstra\u00dfe 8, Sch\u00f6nblick",
        "address": "Niethammerstra\u00dfe 8, 72076 T\u00fcbingen",
        "station_id": "7",
        "rental_uris": {
          "web": "https://ewi3-teilauto-neckar-alb.cantamen.de/#48.5362-9.0615-18-0/place/498"
        }
      },
      {
        "lat": 48.531098,
        "lon": 9.081099,
        "name": "Dorfackerstra\u00dfe 18-20",
        "address": "Dorfackerstra\u00dfe 16, 72074 T\u00fcbingen",
        "station_id": "8",
        "rental_uris": {
          "web": "https://ewi3-teilauto-neckar-alb.cantamen.de/#48.5311-9.079-17-0/place/499"
        }
      },
      {
        "lat": 48.52392,
        "lon": 9.04093,
        "name": "Herrenberger Stra\u00dfe 83",
        "address": "Herrenberger Stra\u00dfe 83, 72070 T\u00fcbingen",
        "station_id": "12",
        "rental_uris": {
          "web": "https://ewi3-teilauto-neckar-alb.cantamen.de/#48.5239-9.0389-17-0/place/503"
        }
      },
      {
        "lat": 48.519782,
        "lon": 9.047242,
        "name": "Schw\u00e4rzlocher Stra\u00dfe 10",
        "address": "Schw\u00e4rzlocher Stra\u00dfe 10, 72070 T\u00fcbingen",
        "station_id": "14",
        "rental_uris": {
          "web": "https://ewi3-teilauto-neckar-alb.cantamen.de/#48.5198-9.0452-17-0/place/505"
        }
      },
      {
        "lat": 48.515691,
        "lon": 9.061168,
        "name": "Reutlinger Str.7, PH Metropol Ebene 01",
        "address": "Reutlinger Stra\u00dfe 7, 72072 T\u00fcbingen",
        "station_id": "18",
        "rental_uris": {
          "web": "https://ewi3-teilauto-neckar-alb.cantamen.de/#48.5157-9.0591-17-0/place/509"
        }
      },
      {
        "lat": 48.514537,
        "lon": 9.058788,
        "name": "F\u00fcrststra\u00dfe 13",
        "address": "F\u00fcrststra\u00dfe 9, 72072 T\u00fcbingen",
        "station_id": "19",
        "rental_uris": {
          "web": "https://ewi3-teilauto-neckar-alb.cantamen.de/#48.5145-9.0567-17-0/place/510"
        }
      },
      {
        "lat": 48.510572,
        "lon": 9.063873,
        "name": "Lilli-Zapf-Str. 20, Loretto 1",
        "address": "Lilli-Zapf-Stra\u00dfe 20, 72072 T\u00fcbingen",
        "station_id": "20",
        "rental_uris": {
          "web": "https://ewi3-teilauto-neckar-alb.cantamen.de/#48.5106-9.0618-17-0/place/511"
        }
      },
      {
        "lat": 48.510483,
        "lon": 9.076126,
        "name": "Wennfelder Garten 4, Projekt 14",
        "address": "Wennfelder Garten 4, 72072 T\u00fcbingen",
        "station_id": "21",
        "rental_uris": {
          "web": "https://ewi3-teilauto-neckar-alb.cantamen.de/#48.5105-9.0741-17-0/place/512"
        }
      },
      {
        "lat": 48.518703,
        "lon": 9.063264,
        "name": "Gartenstra\u00dfe 30",
        "address": "Gartenstra\u00dfe  30, 72074 T\u00fcbingen",
        "station_id": "29",
        "rental_uris": {
          "web": "https://ewi3-teilauto-neckar-alb.cantamen.de/#48.5188-9.0612-17-0/place/519"
        }
      },
      {
        "lat": 48.53112,
        "lon": 9.071362,
        "name": "Linsenbergstra\u00dfe 40",
        "address": "Linsenbergstra\u00dfe 40, 72074 T\u00fcbingen",
        "station_id": "31",
        "rental_uris": {
          "web": "https://ewi3-teilauto-neckar-alb.cantamen.de/#48.5312-9.0714-17-0/place/"
        }
      },
      {
        "lat": 48.510549,
        "lon": 9.079336,
        "name": "Mirabeauweg 4",
        "address": "Mirabeauweg 4, 72072 T\u00fcbingen",
        "station_id": "40",
        "rental_uris": {
          "web": "https://ewi3-teilauto-neckar-alb.cantamen.de/#48.5105-9.0773-17-0/place/527"
        }
      },
      {
        "lat": 48.518113,
        "lon": 9.048849,
        "name": "Neckarhalde 38",
        "address": "Neckarhalde 38, 72070 T\u00fcbingen",
        "station_id": "42",
        "rental_uris": {
          "web": "https://ewi3-teilauto-neckar-alb.cantamen.de/#48.5181-9.0468-17-0/place/529"
        }
      },
      {
        "lat": 48.536088,
        "lon": 9.092377,
        "name": "St\u00e4udach 17, Herrlesberg",
        "address": "St\u00e4udach 17, 72074 T\u00fcbingen",
        "station_id": "43",
        "rental_uris": {
          "web": "https://ewi3-teilauto-neckar-alb.cantamen.de/#48.5361-9.0903-17-0/place/530"
        }
      },
      {
        "lat": 48.523197,
        "lon": 9.060687,
        "name": "Brunnenstra\u00dfe 3, Tech. Rathaus",
        "address": "Brunnenstra\u00dfe 3, 72074 T\u00fcbingen",
        "station_id": "48",
        "rental_uris": {
          "web": "https://ewi3-teilauto-neckar-alb.cantamen.de/#48.5232-9.0586-17-0/place/535"
        }
      },
      {
        "lat": 48.509904,
        "lon": 9.079139,
        "name": "Henriettenweg 6",
        "address": "Henriettenweg 6, 72072 T\u00fcbingen",
        "station_id": "50",
        "rental_uris": {
          "web": "https://ewi3-teilauto-neckar-alb.cantamen.de/#48.5099-9.0771-17-0/place/541"
        }
      },
      {
        "lat": 48.509854,
        "lon": 9.061004,
        "name": "Ruth-Marx-Str. 10, Loretto 2",
        "address": "Ruth-Marx-Stra\u00dfe 12, 72072 T\u00fcbingen",
        "station_id": "52",
        "rental_uris": {
          "web": "https://ewi3-teilauto-neckar-alb.cantamen.de/#48.5099-9.0589-17-0/place/570"
        }
      },
      {
        "lat": 48.513646,
        "lon": 9.061723,
        "name": "Eugensta\u00dfe 20",
        "address": "Eugenstra\u00dfe 23, 72072 T\u00fcbingen",
        "station_id": "53",
        "rental_uris": {
          "web": "https://ewi3-teilauto-neckar-alb.cantamen.de/#48.5136-9.0597-17-0/place/578"
        }
      },
      {
        "lat": 48.50332,
        "lon": 9.049648,
        "name": "Sieben-H\u00f6fe-Str. 11, Rathaus",
        "address": "Sieben-H\u00f6fe-Str. 11, 72072 T\u00fcbingen",
        "station_id": "54",
        "rental_uris": {
          "web": "https://ewi3-teilauto-neckar-alb.cantamen.de/#48.5033-9.0476-17-0/place/667"
        }
      },
      {
        "lat": 48.51058,
        "lon": 9.077566,
        "name": "Aixer Str. 58, Ballspielhalle",
        "address": "Aixer Stra\u00dfe 58, 72072 T\u00fcbingen",
        "station_id": "55",
        "rental_uris": {
          "web": "https://ewi3-teilauto-neckar-alb.cantamen.de/#48.5106-9.0755-17-0/place/681"
        }
      },
      {
        "lat": 48.527691,
        "lon": 9.051559,
        "name": "K\u00e4senbachstra\u00dfe 8/1",
        "address": "K\u00e4senbachstra\u00dfe 8, 72076 T\u00fcbingen",
        "station_id": "56",
        "rental_uris": {
          "web": "https://ewi3-teilauto-neckar-alb.cantamen.de/#48.5277-9.0495-17-0/place/682"
        }
      },
      {
        "lat": 48.512145,
        "lon": 9.050751,
        "name": "Konrad-Adenauer-Stra\u00dfe 5",
        "address": "Konrad-Adenauer-Stra\u00dfe 5, 72072 T\u00fcbingen",
        "station_id": "60",
        "rental_uris": {
          "web": "https://ewi3-teilauto-neckar-alb.cantamen.de/#48.5121-9.0487-17-0/place/838"
        }
      },
      {
        "lat": 48.4757,
        "lon": 8.937726,
        "name": "Schuhstra\u00dfe 4",
        "address": "Schuhstra\u00dfe 4, 72108 Rottenburg am Neckar",
        "station_id": "65",
        "rental_uris": {
          "web": "https://ewi3-teilauto-neckar-alb.cantamen.de/#48.4757-8.9357-17-0/place/947"
        }
      },
      {
        "lat": 48.478618,
        "lon": 8.939115,
        "name": "Sofienstra\u00dfe 16",
        "address": "Sofienstra\u00dfe 16, 72108 Rottenburg am Neckar",
        "station_id": "67",
        "rental_uris": {
          "web": "https://ewi3-teilauto-neckar-alb.cantamen.de/#48.4786-8.9371-17-0/place/1256"
        }
      },
      {
        "lat": 48.512237,
        "lon": 9.075232,
        "name": "Bei den Pferdest\u00e4llen 11, Parkhaus",
        "address": "Bei den Pferdest\u00e4llen 11, 72072 T\u00fcbingen",
        "station_id": "69",
        "rental_uris": {
          "web": "https://ewi3-teilauto-neckar-alb.cantamen.de/#48.5122-9.0732-17-0/place/1272"
        }
      },
      {
        "lat": 48.487533,
        "lon": 9.016166,
        "name": "Im Kleinen Feldle 2",
        "address": "Im Kleinen Feldle 2, 72072 T\u00fcbingen",
        "station_id": "71",
        "rental_uris": {
          "web": "https://ewi3-teilauto-neckar-alb.cantamen.de/#48.4875-9.0141-17-0/place/1305"
        }
      },
      {
        "lat": 48.505473,
        "lon": 9.055701,
        "name": "Primus-Truber-Str. 33, Walter-Erbe-Schule",
        "address": "Primus-Truber-Stra\u00dfe 33, 72072 T\u00fcbingen",
        "station_id": "73",
        "rental_uris": {
          "web": "https://ewi3-teilauto-neckar-alb.cantamen.de/#48.5055-9.0536-17-0/place/1363"
        }
      },
      {
        "lat": 48.511102,
        "lon": 9.069765,
        "name": "Janusz-Korczak-Weg 3",
        "address": "Janusz-Korczak-Weg 3, 72072 T\u00fcbingen",
        "station_id": "74",
        "rental_uris": {
          "web": "https://ewi3-teilauto-neckar-alb.cantamen.de/#48.5111-9.0677-17-0/place/1385"
        }
      },
      {
        "lat": 48.501291,
        "lon": 9.054483,
        "name": "\u00d6lm\u00fchlenweg 1, M\u00fchlenviertel",
        "address": "\u00d6lm\u00fchlenweg 1, 72072 T\u00fcbingen",
        "station_id": "75",
        "rental_uris": {
          "web": "https://ewi3-teilauto-neckar-alb.cantamen.de/#48.5013-9.0524-17-0/place/1394"
        }
      },
      {
        "lat": 48.521323,
        "lon": 9.052911,
        "name": "Bei der Fruchtschranne 1",
        "address": "Bei der Fruchtschranne 1, 72070 T\u00fcbingen",
        "station_id": "77",
        "rental_uris": {
          "web": "https://ewi3-teilauto-neckar-alb.cantamen.de/#48.5213-9.0509-17-0/place/1396"
        }
      },
      {
        "lat": 48.502034,
        "lon": 9.056022,
        "name": "Primus-Truber-Str. 47, Sporthalle Feuerh\u00e4gle",
        "address": "Primus-Truber-Stra\u00dfe 47, 72072 T\u00fcbingen",
        "station_id": "78",
        "rental_uris": {
          "web": "https://ewi3-teilauto-neckar-alb.cantamen.de/#48.502-9.054-17-0/place/1458"
        }
      },
      {
        "lat": 48.483928,
        "lon": 8.93877,
        "name": "Jahnstr. 31, Volksbank-Arena",
        "address": "Jahnstra\u00dfe 31, 72108 Rottenburg am Neckar",
        "station_id": "79",
        "rental_uris": {
          "web": "https://ewi3-teilauto-neckar-alb.cantamen.de/#48.4839-8.9367-17-0/place/1483"
        }
      },
      {
        "lat": 48.515889,
        "lon": 9.05354,
        "name": "Hauptbahnhof, P3",
        "address": "Europaplatz 25 11, 72072 T\u00fcbingen",
        "station_id": "81",
        "rental_uris": {
          "web": "https://ewi3-teilauto-neckar-alb.cantamen.de/#48.5159-9.0515-17-0/place/1541"
        }
      },
      {
        "lat": 48.548873,
        "lon": 9.110555,
        "name": "Baumwiesenweg 1",
        "address": "Baumwiesenweg 1, 72074 T\u00fcbingen",
        "station_id": "82",
        "rental_uris": {
          "web": "https://ewi3-teilauto-neckar-alb.cantamen.de/#48.5489-9.1085-17-0/place/1550"
        }
      },
      {
        "lat": 48.52868,
        "lon": 9.057898,
        "name": "M\u00f6rikestra\u00dfe 4",
        "address": "M\u00f6rikestra\u00dfe 4, 72076 T\u00fcbingen",
        "station_id": "84",
        "rental_uris": {
          "web": "https://ewi3-teilauto-neckar-alb.cantamen.de/#48.5287-9.0558-17-0/place/1710"
        }
      },
      {
        "lat": 48.501462,
        "lon": 8.998735,
        "name": "Kingersheimer Stra\u00dfe 29",
        "address": "Kingersheimer Stra\u00dfe 29, 72070 T\u00fcbingen",
        "station_id": "88",
        "rental_uris": {
          "web": "https://ewi3-teilauto-neckar-alb.cantamen.de/#48.5015-8.9967-17-0/place/1876"
        }
      },
      {
        "lat": 48.511739,
        "lon": 9.064081,
        "name": "Katharinenstr. 30, Loretto 3",
        "address": "Katharinenstra\u00dfe 30, 72072 T\u00fcbingen",
        "station_id": "89",
        "rental_uris": {
          "web": "https://ewi3-teilauto-neckar-alb.cantamen.de/#48.5117-9.062-17-0/place/1885"
        }
      },
      {
        "lat": 48.520634,
        "lon": 9.048595,
        "name": "Schleifm\u00fchleweg 4, Haagtor",
        "address": "Schleifm\u00fchleweg 4, 72070 T\u00fcbingen",
        "station_id": "91",
        "rental_uris": {
          "web": "https://ewi3-teilauto-neckar-alb.cantamen.de/#48.5206-9.0465-17-0/place/1906"
        }
      },
      {
        "lat": 48.52895,
        "lon": 9.064309,
        "name": "Wilhelmstra\u00dfe 60",
        "address": "Wilhelmstra\u00dfe 60, 72074 T\u00fcbingen",
        "station_id": "93",
        "rental_uris": {
          "web": "https://ewi3-teilauto-neckar-alb.cantamen.de/#48.529-9.0622-17-0/place/2021"
        }
      },
      {
        "lat": 48.488592,
        "lon": 9.211969,
        "name": "Lederstr.96, Parkhaus-Ebene J",
        "address": "Lederstra\u00dfe 96, 72764 Reutlingen",
        "station_id": "95",
        "rental_uris": {
          "web": "https://ewi3-teilauto-neckar-alb.cantamen.de/#48.4886-9.2099-17-0/place/2188"
        }
      },
      {
        "lat": 48.496478,
        "lon": 9.196843,
        "name": "Bantlinstra\u00dfe, Parkhaus",
        "address": "Lohm\u00fchlestra\u00dfe 40, 72762 Reutlingen",
        "station_id": "100",
        "rental_uris": {
          "web": "https://ewi3-teilauto-neckar-alb.cantamen.de/#48.4965-9.1948-17-0/place/2194"
        }
      },
      {
        "lat": 48.477758,
        "lon": 9.202414,
        "name": "Hans-Reyhing-Stra\u00dfe 23",
        "address": "Hans-Reyhing-Stra\u00dfe 23, 72762 Reutlingen",
        "station_id": "102",
        "rental_uris": {
          "web": "https://ewi3-teilauto-neckar-alb.cantamen.de/#48.4778-9.2004-17-0/place/2198"
        }
      },
      {
        "lat": 48.486518,
        "lon": 9.258104,
        "name": "Rathausplatz 1",
        "address": "Rathausplatz 1, 72800 Eningen unter Achalm",
        "station_id": "104",
        "rental_uris": {
          "web": "https://ewi3-teilauto-neckar-alb.cantamen.de/#48.4865-9.256-17-0/place/2190"
        }
      },
      {
        "lat": 48.49898,
        "lon": 9.174675,
        "name": "Im Dorf 22",
        "address": "Im Dorf 22, 72770 Reutlingen",
        "station_id": "106",
        "rental_uris": {
          "web": "https://ewi3-teilauto-neckar-alb.cantamen.de/#48.499-9.1726-17-0/place/2195"
        }
      },
      {
        "lat": 48.48492,
        "lon": 9.187863,
        "name": "Pestalozzistra\u00dfe 50",
        "address": "Pestalozzistra\u00dfe 50, 72762 Reutlingen",
        "station_id": "108",
        "rental_uris": {
          "web": "https://ewi3-teilauto-neckar-alb.cantamen.de/#48.4849-9.1858-17-0/place/2186"
        }
      },
      {
        "lat": 48.545817,
        "lon": 9.059522,
        "name": "Ulmenweg, Wendeplatte",
        "address": "Ulmenweg 8, 72076 T\u00fcbingen",
        "station_id": "110",
        "rental_uris": {
          "web": "https://ewi3-teilauto-neckar-alb.cantamen.de/#48.5458-9.0575-17-0/place/2328"
        }
      },
      {
        "lat": 48.521433,
        "lon": 9.058498,
        "name": "Doblerstr. 4 - 6, KSK Innenhof",
        "address": "Doblerstra\u00dfe 4, 72074 T\u00fcbingen",
        "station_id": "114",
        "rental_uris": {
          "web": "https://ewi3-teilauto-neckar-alb.cantamen.de/#48.5214-9.0564-17-0/place/2361"
        }
      },
      {
        "lat": 48.521968,
        "lon": 9.066407,
        "name": "Stauffenbergstra\u00dfe 26",
        "address": "Stauffenbergstra\u00dfe 27, 72074 T\u00fcbingen",
        "station_id": "115",
        "rental_uris": {
          "web": "https://ewi3-teilauto-neckar-alb.cantamen.de/#48.522-9.0643-17-0/place/2390"
        }
      },
      {
        "lat": 48.490985,
        "lon": 9.033755,
        "name": "Wilonstr. 11",
        "address": "Wilonstra\u00dfe 11, 72072 T\u00fcbingen",
        "station_id": "116",
        "rental_uris": {
          "web": "https://ewi3-teilauto-neckar-alb.cantamen.de/#48.491-9.0317-17-0/place/2410"
        }
      },
      {
        "lat": 48.510656,
        "lon": 9.046501,
        "name": "Wilhelm-Keil-Str. 50, Landratsamt",
        "address": "Wilhelm-Keil-Stra\u00dfe 50, 72072 T\u00fcbingen",
        "station_id": "117",
        "rental_uris": {
          "web": "https://ewi3-teilauto-neckar-alb.cantamen.de/#48.5107-9.0444-17-0/place/2432"
        }
      },
      {
        "lat": 48.477141,
        "lon": 8.933043,
        "name": "Burgsteige 2, Rathaus",
        "address": "Burgsteige  2, 72108 Rottenburg am Neckar",
        "station_id": "118",
        "rental_uris": {
          "web": "https://ewi3-teilauto-neckar-alb.cantamen.de/#48.4771-8.931-17-0/place/2453"
        }
      },
      {
        "lat": 48.528787,
        "lon": 9.079662,
        "name": "Kreuzstra\u00dfe 12-14",
        "address": "Kreuzstra\u00dfe 10, 72074 T\u00fcbingen",
        "station_id": "121",
        "rental_uris": {
          "web": "https://ewi3-teilauto-neckar-alb.cantamen.de/#48.5287-9.0796-17-0/place/"
        }
      },
      {
        "lat": 48.49876,
        "lon": 9.057313,
        "name": "Waldh\u00f6rnlestr. 18",
        "address": "Waldh\u00f6rnlestra\u00dfe 18, 72072 T\u00fcbingen",
        "station_id": "122",
        "rental_uris": {
          "web": "https://ewi3-teilauto-neckar-alb.cantamen.de/#48.4988-9.0553-17-0/place/2488"
        }
      },
      {
        "lat": 48.540215,
        "lon": 9.283644,
        "name": "Beim Rathaus 14",
        "address": "Beim Rathaus 14, 72555 Metzingen",
        "station_id": "124",
        "rental_uris": {
          "web": "https://ewi3-teilauto-neckar-alb.cantamen.de/#48.5402-9.2816-17-0/place/2515"
        }
      },
      {
        "lat": 48.491076,
        "lon": 9.397563,
        "name": "Beim Tiergarten 18",
        "address": "Beim Tiergarten 18, 72574 Bad Urach",
        "station_id": "126",
        "rental_uris": {
          "web": "https://ewi3-teilauto-neckar-alb.cantamen.de/#48.4911-9.3955-17-0/place/2518"
        }
      },
      {
        "lat": 48.540409,
        "lon": 9.289377,
        "name": "Eisenbahnstr. 26, Hbf",
        "address": "Eisenbahnstra\u00dfe 24, 72555 Metzingen",
        "station_id": "127",
        "rental_uris": {
          "web": "https://ewi3-teilauto-neckar-alb.cantamen.de/#48.5404-9.2873-17-0/place/2534"
        }
      },
      {
        "lat": 48.522868,
        "lon": 9.060122,
        "name": "Doblerstr. 15, Im Knick",
        "address": "Doblerstra\u00dfe 15, 72074 T\u00fcbingen",
        "station_id": "128",
        "rental_uris": {
          "web": "https://ewi3-teilauto-neckar-alb.cantamen.de/#48.5229-9.0581-17-0/place/2514"
        }
      },
      {
        "lat": 48.554272,
        "lon": 8.966075,
        "name": "Kirchstr. 6, Rathaus",
        "address": "Kirchstra\u00dfe 6, 72119 Ammerbuch",
        "station_id": "129",
        "rental_uris": {
          "web": "https://ewi3-teilauto-neckar-alb.cantamen.de/#48.5543-8.964-17-0/place/2519"
        }
      },
      {
        "lat": 48.495991,
        "lon": 9.215111,
        "name": "Bismarkstr.23",
        "address": "Bismarckstra\u00dfe 23, 72764 Reutlingen",
        "station_id": "132",
        "rental_uris": {
          "web": "https://ewi3-teilauto-neckar-alb.cantamen.de/#48.496-9.2131-17-0/place/2568"
        }
      },
      {
        "lat": 48.515501,
        "lon": 9.150564,
        "name": "Hauptstr.4, Rathaus",
        "address": "Hauptstra\u00dfe 4, 72827 Wannweil",
        "station_id": "137",
        "rental_uris": {
          "web": "https://ewi3-teilauto-neckar-alb.cantamen.de/#48.5155-9.1485-17-0/place/2765"
        }
      },
      {
        "lat": 48.490519,
        "lon": 9.22052,
        "name": "Leonhardsplatz",
        "address": "Kaiserstra\u00dfe 72, 72764 Reutlingen",
        "station_id": "142",
        "rental_uris": {
          "web": "https://ewi3-teilauto-neckar-alb.cantamen.de/#48.4905-9.2185-17-0/place/2891"
        }
      },
      {
        "lat": 48.522915,
        "lon": 9.035864,
        "name": "Handwerkerpark 7",
        "address": "Handwerkerpark 7, 72070 T\u00fcbingen",
        "station_id": "143",
        "rental_uris": {
          "web": "https://ewi3-teilauto-neckar-alb.cantamen.de/#48.5229-9.0338-17-0/place/2895"
        }
      },
      {
        "lat": 48.511095,
        "lon": 9.051567,
        "name": "Derendinger Str.50",
        "address": "Derendinger Stra\u00dfe 50A, 72072 T\u00fcbingen",
        "station_id": "148",
        "rental_uris": {
          "web": "https://ewi3-teilauto-neckar-alb.cantamen.de/#48.5111-9.0495-17-0/place/2921"
        }
      },
      {
        "lat": 48.494944,
        "lon": 9.206864,
        "name": "Unter den Linden 17, Parkplatz Altes Postdepot",
        "address": "Unter den Linden 17, 72762 Reutlingen",
        "station_id": "149",
        "rental_uris": {
          "web": "https://ewi3-teilauto-neckar-alb.cantamen.de/#48.4949-9.2048-17-0/place/2953"
        }
      },
      {
        "lat": 48.508598,
        "lon": 9.072978,
        "name": "Sudetenstr.33",
        "address": "Sudetenstra\u00dfe 33, 72072 T\u00fcbingen",
        "station_id": "150",
        "rental_uris": {
          "web": "https://ewi3-teilauto-neckar-alb.cantamen.de/#48.5086-9.0709-17-0/place/2968"
        }
      },
      {
        "lat": 48.452385,
        "lon": 9.057978,
        "name": "Bahnhofstr. 14, Parkplatz",
        "address": "Bahnhofstra\u00dfe 14, 72144 Du\u00dflingen",
        "station_id": "151",
        "rental_uris": {
          "web": "https://ewi3-teilauto-neckar-alb.cantamen.de/#48.4524-9.0559-17-0/place/2969"
        }
      },
      {
        "lat": 48.520311,
        "lon": 9.079441,
        "name": "Bismarckstr.120",
        "address": "Bismarckstra\u00dfe 120, 72072 T\u00fcbingen",
        "station_id": "152",
        "rental_uris": {
          "web": "https://ewi3-teilauto-neckar-alb.cantamen.de/#48.5203-9.0774-17-0/place/3029"
        }
      },
      {
        "lat": 48.511598,
        "lon": 9.051903,
        "name": "Derendinger Stra\u00dfe 40",
        "address": "Derendinger Stra\u00dfe 40, 72072 T\u00fcbingen",
        "station_id": "153",
        "rental_uris": {
          "web": "https://ewi3-teilauto-neckar-alb.cantamen.de/#48.5116-9.0498-17-0/place/3031"
        }
      },
      {
        "lat": 48.524607,
        "lon": 8.982424,
        "name": "Ammertalbahnstr. 16, Bahnhof",
        "address": "Ammertalbahnstra\u00dfe 16, 72070 T\u00fcbingen",
        "station_id": "154",
        "rental_uris": {
          "web": "https://ewi3-teilauto-neckar-alb.cantamen.de/#48.5246-8.9804-17-0/place/3032"
        }
      },
      {
        "lat": 48.511828,
        "lon": 9.037508,
        "name": "Rappenberghalde 36",
        "address": "Rappenberghalde 36, 72070 T\u00fcbingen",
        "station_id": "155",
        "rental_uris": {
          "web": "https://ewi3-teilauto-neckar-alb.cantamen.de/#48.5118-9.0354-17-0/place/3074"
        }
      },
      {
        "lat": 48.482589,
        "lon": 8.999243,
        "name": "Sengentalstr. 16 - Turnhalle",
        "address": "Sengentalstra\u00dfe 16, 72072 T\u00fcbingen",
        "station_id": "160",
        "rental_uris": {
          "web": "https://ewi3-teilauto-neckar-alb.cantamen.de/#48.4826-8.9972-17-0/place/3405"
        }
      },
      {
        "lat": 48.528183,
        "lon": 9.08891,
        "name": "Hans-Sahl-Stra\u00dfe 4, Alte Weberei",
        "address": "Hans-Sahl-Stra\u00dfe 2, 72074 T\u00fcbingen",
        "station_id": "161",
        "rental_uris": {
          "web": "https://ewi3-teilauto-neckar-alb.cantamen.de/#48.5282-9.0869-17-0/place/3486"
        }
      },
      {
        "lat": 48.526925,
        "lon": 9.087936,
        "name": "N\u00fcrtinger Stra\u00dfe 38, Alte Weberei",
        "address": "N\u00fcrtinger Stra\u00dfe 38, 72074 T\u00fcbingen",
        "station_id": "162",
        "rental_uris": {
          "web": "https://ewi3-teilauto-neckar-alb.cantamen.de/#48.5269-9.0859-17-0/place/3487"
        }
      },
      {
        "lat": 48.543782,
        "lon": 9.059531,
        "name": "Wei\u00dfdornweg, Wendeplatte",
        "address": "Wei\u00dfdornweg 41974, 72076 T\u00fcbingen",
        "station_id": "164",
        "rental_uris": {
          "web": "https://ewi3-teilauto-neckar-alb.cantamen.de/#48.5438-9.0575-17-0/place/3919"
        }
      },
      {
        "lat": 48.545478,
        "lon": 9.061908,
        "name": "Ligusterweg, Wendeplatte",
        "address": "Ligusterweg 3, 72076 T\u00fcbingen",
        "station_id": "167",
        "rental_uris": {
          "web": "https://ewi3-teilauto-neckar-alb.cantamen.de/#48.5455-9.0598-17-0/place/3922"
        }
      },
      {
        "lat": 48.544667,
        "lon": 9.06193,
        "name": "Eschenweg, Wendeplatte",
        "address": "Eschenweg 16, 72076 T\u00fcbingen",
        "station_id": "168",
        "rental_uris": {
          "web": "https://ewi3-teilauto-neckar-alb.cantamen.de/#48.5447-9.0599-17-0/place/3923"
        }
      },
      {
        "lat": 48.543359,
        "lon": 9.063364,
        "name": "Eichenweg, Wendeplatte",
        "address": "Eichenweg 7, 72076 T\u00fcbingen",
        "station_id": "170",
        "rental_uris": {
          "web": "https://ewi3-teilauto-neckar-alb.cantamen.de/#48.5434-9.0613-17-0/place/3925"
        }
      },
      {
        "lat": 48.509905,
        "lon": 9.057995,
        "name": "Huberstra\u00dfe 14",
        "address": "Huberstra\u00dfe 14, 72072 T\u00fcbingen",
        "station_id": "172",
        "rental_uris": {
          "web": "https://ewi3-teilauto-neckar-alb.cantamen.de/#48.5099-9.0559-17-0/place/3951"
        }
      },
      {
        "lat": 48.528994,
        "lon": 9.062823,
        "name": "Mohlstra\u00dfe 11",
        "address": "Mohlstra\u00dfe 11, 72074 T\u00fcbingen",
        "station_id": "174",
        "rental_uris": {
          "web": "https://ewi3-teilauto-neckar-alb.cantamen.de/#48.529-9.0608-17-0/place/4123"
        }
      },
      {
        "lat": 48.522163,
        "lon": 9.046975,
        "name": "Rappstra\u00dfe 21",
        "address": "Rappstra\u00dfe  21, 72070 T\u00fcbingen",
        "station_id": "175",
        "rental_uris": {
          "web": "https://ewi3-teilauto-neckar-alb.cantamen.de/#48.5222-9.0449-17-0/place/4125"
        }
      },
      {
        "lat": 48.509776,
        "lon": 9.066626,
        "name": "Alexanderstr.52/Ecke Mathildenstra\u00dfe",
        "address": "Alexanderstra\u00dfe   52, 72072 T\u00fcbingen",
        "station_id": "176",
        "rental_uris": {
          "web": "https://ewi3-teilauto-neckar-alb.cantamen.de/#48.5098-9.0646-17-0/place/4136"
        }
      },
      {
        "lat": 48.517294,
        "lon": 9.071189,
        "name": "Bismarckstra\u00dfe 66",
        "address": "Bismarckstra\u00dfe  66, 72072 T\u00fcbingen",
        "station_id": "177",
        "rental_uris": {
          "web": "https://ewi3-teilauto-neckar-alb.cantamen.de/#48.5173-9.0691-17-0/place/4173"
        }
      },
      {
        "lat": 48.519017,
        "lon": 9.06875,
        "name": "Gartenstra\u00dfe 62",
        "address": "Gartenstra\u00dfe 62, 72074 T\u00fcbingen",
        "station_id": "178",
        "rental_uris": {
          "web": "https://ewi3-teilauto-neckar-alb.cantamen.de/#48.519-9.0667-17-0/place/4174"
        }
      },
      {
        "lat": 48.495663,
        "lon": 9.209923,
        "name": "Hauptbahnhof, Listplatz 1",
        "address": "Listplatz 1, 72764 Reutlingen",
        "station_id": "179",
        "rental_uris": {
          "web": "https://ewi3-teilauto-neckar-alb.cantamen.de/#48.4957-9.2079-17-0/place/4427"
        }
      },
      {
        "lat": 48.539669,
        "lon": 9.008579,
        "name": "Schlo\u00dfgartenstr.33, Parkplatz gegen\u00fcber",
        "address": "Schlo\u00dfgartenstra\u00dfe 33 6, 72070 T\u00fcbingen",
        "station_id": "181",
        "rental_uris": {
          "web": "https://ewi3-teilauto-neckar-alb.cantamen.de/#48.5397-9.0065-17-0/place/4574"
        }
      },
      {
        "lat": 48.501984,
        "lon": 9.054028,
        "name": "Paul-Dietz-Stra\u00dfe 15",
        "address": "Paul-Dietz-Stra\u00dfe  15, 72072 T\u00fcbingen",
        "station_id": "183",
        "rental_uris": {
          "web": "https://ewi3-teilauto-neckar-alb.cantamen.de/#48.502-9.052-17-0/place/4592"
        }
      },
      {
        "lat": 48.520504,
        "lon": 9.04972,
        "name": "Vor dem Haagtor 1",
        "address": "Vor dem Haagtor 1, 72070 T\u00fcbingen",
        "station_id": "184",
        "rental_uris": {
          "web": "https://ewi3-teilauto-neckar-alb.cantamen.de/#48.5205-9.0477-17-0/place/4593"
        }
      },
      {
        "lat": 48.508383,
        "lon": 9.074152,
        "name": "Wennfelder Garten 30",
        "address": "Wennfelder Garten  30, 72072 T\u00fcbingen",
        "station_id": "185",
        "rental_uris": {
          "web": "https://ewi3-teilauto-neckar-alb.cantamen.de/#48.5084-9.0721-17-0/place/4594"
        }
      },
      {
        "lat": 48.510736,
        "lon": 9.062105,
        "name": "Lorettoplatz 6",
        "address": "Lorettoplatz 6, 72072 T\u00fcbingen",
        "station_id": "186",
        "rental_uris": {
          "web": "https://ewi3-teilauto-neckar-alb.cantamen.de/#48.5107-9.06-17-0/place/4613"
        }
      },
      {
        "lat": 48.533674,
        "lon": 9.061924,
        "name": "Im Rotbad/Ecke Corrensstra\u00dfe",
        "address": "Corrensstra\u00dfe 34, 72076 T\u00fcbingen",
        "station_id": "187",
        "rental_uris": {
          "web": "https://ewi3-teilauto-neckar-alb.cantamen.de/#48.5337-9.0599-17-0/place/4735"
        }
      },
      {
        "lat": 48.472678,
        "lon": 8.937864,
        "name": "Poststra\u00dfe, Hauptbahnhof P&R",
        "address": "Poststra\u00dfe , 72108 Rottenburg",
        "station_id": "189",
        "rental_uris": {
          "web": "https://ewi3-teilauto-neckar-alb.cantamen.de/#48.4727-8.9358-17-0/place/4822"
        }
      },
      {
        "lat": 48.501568,
        "lon": 8.995663,
        "name": "Kingersheimer Str. 57, PP-Ortsverwaltung",
        "address": "Kingersheimer Stra\u00dfe 57, 72070 T\u00fcbingen",
        "station_id": "190",
        "rental_uris": {
          "web": "https://ewi3-teilauto-neckar-alb.cantamen.de/#48.5016-8.9936-17-0/place/4864"
        }
      },
      {
        "lat": 48.544134,
        "lon": 9.047366,
        "name": "Heuberger-Tor-Weg 3",
        "address": "Heuberger-Tor-Weg  3, 72076 T\u00fcbingen",
        "station_id": "191",
        "rental_uris": {
          "web": "https://ewi3-teilauto-neckar-alb.cantamen.de/#48.5441-9.0453-17-0/place/4916"
        }
      },
      {
        "lat": 48.515376,
        "lon": 9.069136,
        "name": "Eisenbahnstra\u00dfe 32 (Depot)",
        "address": "Eisenbahnstra\u00dfe 37, 72072 T\u00fcbingen",
        "station_id": "192",
        "rental_uris": {
          "web": "https://ewi3-teilauto-neckar-alb.cantamen.de/#48.5154-9.0671-17-0/place/5018"
        }
      },
      {
        "lat": 48.522976,
        "lon": 9.054624,
        "name": "Am Stadtgraben 27",
        "address": "Am Stadtgraben 27, 72070 T\u00fcbingen",
        "station_id": "193",
        "rental_uris": {
          "web": "https://ewi3-teilauto-neckar-alb.cantamen.de/#48.523-9.0526-17-0/place/5130"
        }
      },
      {
        "lat": 48.465681,
        "lon": 9.221432,
        "name": "Schlo\u00dfstra\u00dfe 28",
        "address": "Schlo\u00dfstra\u00dfe  28, 72793 Pfullingen",
        "station_id": "194",
        "rental_uris": {
          "web": "https://ewi3-teilauto-neckar-alb.cantamen.de/#48.4657-9.2194-17-0/place/5142"
        }
      },
      {
        "lat": 48.479639,
        "lon": 9.208456,
        "name": "Unterm Georgenberg 7",
        "address": "Unterm Georgenberg 7, 72762 Reutlingen",
        "station_id": "195",
        "rental_uris": {
          "web": "https://ewi3-teilauto-neckar-alb.cantamen.de/#48.4796-9.2064-17-0/place/5249"
        }
      },
      {
        "lat": 48.51428,
        "lon": 9.05474,
        "name": "Schellingstra\u00dfe 4/2",
        "address": "Schellingstra\u00dfe 4, 72072 T\u00fcbingen",
        "station_id": "196",
        "rental_uris": {
          "web": "https://ewi3-teilauto-neckar-alb.cantamen.de/#48.5126-9.0518-17-0/place/5275"
        }
      },
      {
        "lat": 48.51953,
        "lon": 9.20298,
        "name": "Heilbronner Stra\u00dfe 94",
        "address": "Heilbronner Stra\u00dfe  94, 72770 Reutlingen",
        "station_id": "197",
        "rental_uris": {
          "web": "https://ewi3-teilauto-neckar-alb.cantamen.de/#48.5195-9.2009-17-0/place/5383"
        }
      },
      {
        "lat": 48.501042,
        "lon": 9.199525,
        "name": "Alice-Haarburger Stra\u00dfe 2",
        "address": "Alice-Haarburger Stra\u00dfe 2, 72760 Reutlingen",
        "station_id": "198",
        "rental_uris": {
          "web": "https://ewi3-teilauto-neckar-alb.cantamen.de/#48.501-9.1975-17-0/place/5386"
        }
      },
      {
        "lat": 48.510279,
        "lon": 9.075612,
        "name": "Eisenhutstra\u00dfe 44 / Ecke Wennfelder Garten",
        "address": "Eisenhutstra\u00dfe 44, 72072 T\u00fcbingen",
        "station_id": "199",
        "rental_uris": {
          "web": "https://ewi3-teilauto-neckar-alb.cantamen.de/#48.5102-9.0756-17-0/Place/"
        }
      },
      {
        "lat": 48.502324,
        "lon": 9.048878,
        "name": "Marienstra\u00dfe 18",
        "address": "Marienstra\u00dfe 18, 72072 T\u00fcbingen",
        "station_id": "200",
        "rental_uris": {
          "web": "https://ewi3-teilauto-neckar-alb.cantamen.de/#48.5022-9.0489-17-0/Place/"
        }
      }
    ]
  },
  "last_updated": 1644403340,
  "ttl": 60000,
  "version": "2.2"
}